{
    "locations": [
        {
            "id": "Keningau-Sabah-2026",
            "name": "Keningau Sabah",
            "description": "the city of Keningau Sabah",
            "coordinates": {
                "longitude": 116.1649,
                "latitude": 5.3555,
                "height": 50
            },
            "dataPaths": {
                "tileset": "https://example.com/tileset.json"
            }
        },
        {
            "id": "KK_OSPREY",
            "name": "KK OSPREY",
            "description": "3D model from GeoSabah 3D Hub (Kota Kinabalu area).",
            "coordinates": {
                "longitude": 116.070466,
                "latitude": 5.957839,
                "height": 50
            },
            "dataPaths": {
                "tileset": "https://3dhub.geosabah.my/3dmodel/KK_OSPREY/tileset.json"
            }
        },
        {
            "id": "kb-3dtiles-lite",
            "name": "KB 3DTiles Lite",
            "description": "3D model of buildings in Kota Kinabalu.",
            "coordinates": {
                "longitude": 116.073466,
                "latitude": 5.960839,
                "height": 50
            },
            "dataPaths": {
                "tileset": "https://3dhub.geosabah.my/3dmodel/Building_Planning/KB_3DTiles_Lite/tileset.json"
            }
        },
        {
            "id": "kolombong-fisheye",
            "name": "Kolombong Fisheye Test",
            "description": "Fisheye test model in Kolombong area.",
            "coordinates": {
                "longitude": 116.110466,
                "latitude": 5.977839,
                "height": 50
            },
            "dataPaths": {
                "tileset": "https://3dhub.geosabah.my/3dmodel/Building_Planning/fisheye_test_kolombong_18mac2025/tileset.json"
            }
        },
        {
            "id": "wisma-merdeka",
            "name": "WISMA MERDEKA",
            "description": "3D model of Wisma Merdeka complex.",
            "coordinates": {
                "longitude": 116.074466,
                "latitude": 5.984839,
                "height": 50
            },
            "dataPaths": {
                "tileset": "https://3dhub.geosabah.my/3dmodel/wismamerdeka/tileset.json"
            }
        },
        {
            "id": "ppns-ys",
            "name": "PPNS YS",
            "description": "3D model of PPNS area.",
            "coordinates": {
                "longitude": 116.082466,
                "latitude": 5.992839,
                "height": 50
            },
            "dataPaths": {
                "tileset": "https://3dhub.geosabah.my/3dmodel/ppns_ys/tileset.json"
            }
        }
    ]
}