{
  "locations": [
    {
      "id": "KK_OSPREY",
      "name": "KK OSPREY",
      "description": "3D model from GeoSabah 3D Hub (Kota Kinabalu area).",
      "coordinates": {
        "longitude": 116.070466,
        "latitude": 5.957839,
        "height": 50
      },
      "dataPaths": {
        "tileset": "https://3dhub.geosabah.my/3dmodel/KK_OSPREY/tileset.json"
      }
    },
    {
      "id": "kb-3dtiles-lite",
      "name": "KB 3DTiles Lite",
      "description": "3D model of buildings in Kota Kinabalu.",
      "coordinates": {
        "longitude": 116.073466,
        "latitude": 5.960839,
        "height": 50
      },
      "dataPaths": {
        "tileset": "https://3dhub.geosabah.my/3dmodel/kb-3dtiles-lite/tileset.json"
      }
    },
    {
      "id": "kolombong-fisheye",
      "name": "Kolombong Fisheye Test",
      "description": "Fisheye test model in Kolombong area.",
      "coordinates": {
        "longitude": 116.110466,
        "latitude": 5.977839,
        "height": 50
      },
      "dataPaths": {
        "tileset": "https://3dhub.geosabah.my/3dmodel/kolombong-fisheye/tileset.json"
      }
    },
    {
      "id": "wisma-merdeka",
      "name": "WISMA MERDEKA",
      "description": "3D model of Wisma Merdeka complex.",
      "coordinates": {
        "longitude": 116.074466,
        "latitude": 5.984839,
        "height": 50
      },
      "dataPaths": {
        "tileset": "https://3dhub.geosabah.my/3dmodel/wisma-merdeka/tileset.json"
      }
    },
    {
      "id": "ppns-ys",
      "name": "PPNS YS",
      "description": "3D model of PPNS area.",
      "coordinates": {
        "longitude": 116.082466,
        "latitude": 5.992839,
        "height": 50
      },
      "dataPaths": {
        "tileset": "https://3dhub.geosabah.my/3dmodel/ppns-ys/tileset.json"
      }
    }
  ]
}
